{
  "planets": [
    {
      "name": "earth",
      "base_weather": "periodic",
      "weather_decorators":  ["rain"],
      "zones": {
        "Z1": [0, 30],
        "Z2": [30, 60],
        "Z3": [60, 90],
        "Z4": [0, -30],
        "Z5": [-30, -60],
        "Z6": [-60, -90]
      },
      "zone_data": {
        "Z1": {
          "summer": {"temperature": [35, 50], "pressure": [1000, 1200], "humidity": [10, 20]},
          "winter": {"temperature": [20, 40], "pressure": [900, 1050], "humidity": [12, 25]},
          "rain": {"temperature": [15, 30], "pressure": [1000, 1200], "humidity": [70, 85]}
        },
        "Z2": {
          "summer": {"temperature": [12, 38], "pressure": [1000, 1200], "humidity": [15, 30]},
          "winter": {"temperature": [-10, 11], "pressure": [850, 1000], "humidity": [22, 40]},
          "rain": {"temperature": [7, 18], "pressure": [1000, 1200], "humidity": [78, 98]}
        },
        "Z3": {
          "summer": {"temperature": [1, 10], "pressure": [800, 900], "humidity": [28, 48]},
          "winter": {"temperature": [-25, -9], "pressure": [650, 799], "humidity": [28, 55]}
        },
        "Z4": {
          "summer": {"temperature": [35, 50], "pressure": [1000, 1200], "humidity": [10, 20]},
          "winter": {"temperature": [20, 40], "pressure": [900, 1050], "humidity": [12, 25]},
          "rain": {"temperature": [15, 30], "pressure": [1000, 1200], "humidity": [70, 85]}
        },
        "Z5": {
          "summer": {"temperature": [12, 38], "pressure": [1000, 1200], "humidity": [15, 30]},
          "winter": {"temperature": [-10, 11], "pressure": [850, 1000], "humidity": [22, 40]},
          "rain": {"temperature": [7, 18], "pressure": [1000, 1200], "humidity": [78, 98]}
        },
        "Z6": {
          "summer": {"temperature": [-1, 8], "pressure": [800, 900], "humidity": [28, 48]},
          "winter": {"temperature": [-25, -11], "pressure": [650, 799], "humidity": [28, 45]}
        }
      },
      "rain_zones": ["Z1", "Z2", "Z4", "Z5"],
      "revolution_period": 12,
      "locations": [
        {
          "name": "London",
          "latitude": 51.36,
          "longitude": -0.7,
          "timezone": "UTC+1",
          "elevation": 35
        },
        {
          "name": "Montreal",
          "latitude": 45.3,
          "longitude": -73.5,
          "timezone": "UTC-5",
          "elevation": 235
        },
        {
          "name": "Iqaluit",
          "latitude": 63.45,
          "longitude": -68.32,
          "timezone": "UTC-5",
          "elevation": 23
        },
        {
          "name": "Sydney",
          "latitude": -33.86,
          "longitude": 151.21,
          "timezone": "UTC+11",
          "elevation": 39
        },
        {
          "name": "Singapore",
          "latitude": 1.86,
          "longitude": 103.21,
          "timezone": "UTC+8",
          "elevation": 15
        },
        {
          "name": "Toronto",
          "latitude": 43.42,
          "longitude": -79.25,
          "timezone": "UTC-5",
          "elevation": 76 
        },
        {
          "name": "Tokyo",
          "latitude": 35.41,
          "longitude": 139.41,
          "timezone": "UTC+9",
          "elevation": 40 
        },
        {
          "name": "Ushuaia",
          "latitude": 64.48,
          "longitude": -68.18,
          "timezone": "UTC-3",
          "elevation": 23 
        },
        {
          "name": "Dunedin",
          "latitude": -45.52,
          "longitude": 170.4,
          "timezone": "UTC+13",
          "elevation": 52 
        },
        {
          "name": "Cape Town",
          "latitude": -33.54,
          "longitude": 18.25,
          "timezone": "UTC+2",
          "elevation": 1520
        },
        {
          "name": "Hobart",
          "latitude": -42.52,
          "longitude": 147.19,
          "timezone": "UTC+10",
          "elevation": 9
        }
      ]
    }
  ]
}
